{
  "sample_rows": [
    {
      "id_centre": 21,
      "nom_centre": "WOLF SHOPPING",
      "ville_centre": "SÃO PAULO",
      "état_centre": "SP",
      "latitude_centre": -23.550407,
      "longitude_centre": -46.6973162
    },
    {
      "id_centre": 44,
      "nom_centre": "FORTRAN SHOPPING",
      "ville_centre": "CURITIBA",
      "état_centre": "PR",
      "latitude_centre": -25.4351398,
      "longitude_centre": -49.3167883
    },
    {
      "id_centre": 75,
      "nom_centre": "PYTHON SHOPPING",
      "ville_centre": "CURITIBA",
      "état_centre": "PR",
      "latitude_centre": -25.477073,
      "longitude_centre": -49.28966
    },
    {
      "id_centre": 18,
      "nom_centre": "STAR SHOPPING",
      "ville_centre": "RIO DE JANEIRO",
      "état_centre": "RJ",
      "latitude_centre": -22.9454948,
      "longitude_centre": -43.1821807
    },
    {
      "id_centre": 35,
      "nom_centre": "BEACH SHOPPING",
      "ville_centre": "RIO DE JANEIRO",
      "état_centre": "RJ",
      "latitude_centre": -22.96988,
      "longitude_centre": -43.370811
    }
  ],
  "table_name": "hubs",
  "table_fullname": "hubs",
  "column_names": [
    "id_centre",
    "nom_centre",
    "ville_centre",
    "état_centre",
    "latitude_centre",
    "longitude_centre"
  ],
  "column_types": [
    "INTEGER",
    "VARCHAR(50)",
    "VARCHAR(50)",
    "CHAR(2)",
    "DECIMAL(9, 6)",
    "DECIMAL(9, 6)"
  ],
  "description": [
    "",
    "",
    "",
    "",
    "",
    ""
  ]
}